[
  {
    "id": "1",
    "Dist": "中山區",
    "Name": "滿堂紅頂級麻辣鴛鴦鍋",
    "Group": "經典鍋物組(799以下)",
    "Address": "臺北市中山區松江路185號2樓",
    "Longitude": "121.5331715",
    "Latitude": "25.05724095",
    "Award": ""
  },
  {
    "id": "2",
    "Dist": "中山區",
    "Name": "鎰鼎火鍋",
    "Group": "饗宴鍋物組(800以上)",
    "Address": "臺北市中山區松江路38巷2號1樓",
    "Longitude": "121.5326471",
    "Latitude": "25.04828511",
    "Award": ""
  },
  {
    "id": "3",
    "Dist": "中山區",
    "Name": "鐤極宴-私廚鍋物",
    "Group": "饗宴鍋物組(800以上)",
    "Address": "臺北市中山區長安東路二段218號",
    "Longitude": "121.5422927",
    "Latitude": "25.04894453",
    "Award": ""
  },
  {
    "id": "4",
    "Dist": "中山區",
    "Name": "泰滾_泰式火鍋",
    "Group": "饗宴鍋物組(800以上)",
    "Address": "臺北市中山區南京東路二段178號B1",
    "Longitude": "121.5353367",
    "Latitude": "25.05262148",
    "Award": "專家評選獎 人氣票選"
  },
  {
    "id": "5",
    "Dist": "中山區",
    "Name": "侯黑鍋物HoHey HotPot",
    "Group": "經典鍋物組(799以下)",
    "Address": "臺北市中山區四平街19號",
    "Longitude": "121.5313514",
    "Latitude": "25.05448272",
    "Award": ""
  },
  {
    "id": "6",
    "Dist": "中山區",
    "Name": "土狗樂市",
    "Group": "經典鍋物組(799以下)",
    "Address": "臺北市中山區建國北路2段3巷17號",
    "Longitude": "121.5378786",
    "Latitude": "25.05379388",
    "Award": ""
  },
  {
    "id": "7",
    "Dist": "中山區",
    "Name": "肉老大頂級肉品涮涮鍋",
    "Group": "經典鍋物組(799以下)",
    "Address": "臺北市中山區錦西街11號",
    "Longitude": "121.5211918",
    "Latitude": "25.0612523",
    "Award": "專家評選獎 人氣票選"
  },
  {
    "id": "8",
    "Dist": "中山區",
    "Name": "如嬌　花膠雞．鍋物",
    "Group": "饗宴鍋物組(800以上)",
    "Address": "臺北市中山區民權東路三段60巷9號1樓",
    "Longitude": "121.5425161",
    "Latitude": "25.0617422",
    "Award": "人氣票選 "
  },
  {
    "id": "9",
    "Dist": "中山區",
    "Name": "火鍋106-粵式豬肚煲鍋",
    "Group": "饗宴鍋物組(800以上)",
    "Address": "臺北市中山區吉林路18號1樓",
    "Longitude": "121.5302127",
    "Latitude": "25.05160497",
    "Award": ""
  },
  {
    "id": "10",
    "Dist": "中山區",
    "Name": "宣牛溫體牛肉火鍋",
    "Group": "經典鍋物組(799以下)",
    "Address": "臺北市中山區復興北路292號",
    "Longitude": "121.5436193",
    "Latitude": "25.06030601",
    "Award": ""
  },
  {
    "id": "11",
    "Dist": "中山區",
    "Name": "享鍋酒館",
    "Group": "饗宴鍋物組(800以上)",
    "Address": "臺北市中山區中山北路二段74號",
    "Longitude": "121.5226357",
    "Latitude": "25.05770879",
    "Award": ""
  },
  {
    "id": "12",
    "Dist": "中山區",
    "Name": "汆食 作伙鍋",
    "Group": "經典鍋物組(799以下)",
    "Address": "臺北市中山區中山北路三段26號1樓",
    "Longitude": "121.5219642",
    "Latitude": "25.06627328",
    "Award": ""
  },
  {
    "id": "13",
    "Dist": "中山區",
    "Name": "手工殿麻辣鍋物",
    "Group": "饗宴鍋物組(800以上)",
    "Address": "臺北市中山區長安東路一段53巷1-1號1樓",
    "Longitude": "121.5265534",
    "Latitude": "25.05046576",
    "Award": "專家評選獎 人氣票選"
  },
  {
    "id": "14",
    "Dist": "中山區",
    "Name": "蔡記隆府龍頭寺老灶火鍋",
    "Group": "饗宴鍋物組(800以上)",
    "Address": "臺北市中山區新生北路2段58巷6號",
    "Longitude": "121.5265963",
    "Latitude": "25.05120445",
    "Award": ""
  },
  {
    "id": "15",
    "Dist": "中山區",
    "Name": "好食多涮涮鍋南西店",
    "Group": "饗宴鍋物組(800以上)",
    "Address": "臺北市中山區南京西路5-1號B1",
    "Longitude": "121.521572",
    "Latitude": "25.05352023",
    "Award": ""
  },
  {
    "id": "16",
    "Dist": "萬華區",
    "Name": "食焱廠創意鍋物 DELECTABLE HOT POT LAB",
    "Group": "經典鍋物組(799以下)",
    "Address": "臺北市萬華區昆明街146號1樓",
    "Longitude": "121.5046808",
    "Latitude": "25.04331516",
    "Award": ""
  },
  {
    "id": "17",
    "Dist": "萬華區",
    "Name": "喜多鍋活體海鮮鍋物",
    "Group": "饗宴鍋物組(800以上)",
    "Address": "臺北市萬華區武昌街二段124-1號1樓",
    "Longitude": "121.5040691",
    "Latitude": "25.04630255",
    "Award": ""
  },
  {
    "id": "18",
    "Dist": "萬華區",
    "Name": "新千葉火鍋-西門店",
    "Group": "經典鍋物組(799以下)",
    "Address": "臺北市萬華區峨嵋街52號7樓",
    "Longitude": "121.505634",
    "Latitude": "25.04452102",
    "Award": ""
  },
  {
    "id": "19",
    "Dist": "萬華區",
    "Name": "築間幸福鍋物 台北西門町店",
    "Group": "經典鍋物組(799以下)",
    "Address": "臺北市萬華區昆明街92-1號2樓",
    "Longitude": "121.505021",
    "Latitude": "25.04593317",
    "Award": "人氣票選"
  },
  {
    "id": "20",
    "Dist": "萬華區",
    "Name": "打狗霸",
    "Group": "饗宴鍋物組(800以上)",
    "Address": "臺北市萬華區昆明街46號",
    "Longitude": "121.5057929",
    "Latitude": "25.04748348",
    "Award": ""
  },
  {
    "id": "21",
    "Dist": "萬華區",
    "Name": "前鎮水產",
    "Group": "饗宴鍋物組(800以上)",
    "Address": "臺北市萬華區昆明街46號",
    "Longitude": "121.5057929",
    "Latitude": "25.04748348",
    "Award": ""
  },
  {
    "id": "22",
    "Dist": "大同區",
    "Name": "荖子鍋",
    "Group": "經典鍋物組(799以下)",
    "Address": "臺北市大同區重慶北路二段171號1樓 (家樂福重慶店一樓美食街)",
    "Longitude": "121.5138783",
    "Latitude": "25.05987721",
    "Award": "人氣票選"
  },
  {
    "id": "23",
    "Dist": "大同區",
    "Name": "本鼎堂台式漢方麻辣鍋",
    "Group": "饗宴鍋物組(800以上)",
    "Address": "臺北市大同區南京西路277號1樓",
    "Longitude": "121.5094827",
    "Latitude": "25.05408046",
    "Award": ""
  },
  {
    "id": "24",
    "Dist": "中正區",
    "Name": "藍象廷泰式火鍋",
    "Group": "經典鍋物組(799以下)",
    "Address": "臺北市中正區忠孝西路1段66號B1",
    "Longitude": "121.5152763",
    "Latitude": "25.04645955",
    "Award": ""
  },
  {
    "id": "25",
    "Dist": "中正區",
    "Name": "八海食潮 當代鍋物",
    "Group": "經典鍋物組(799以下)",
    "Address": "臺北市中正區北平西路3號2樓",
    "Longitude": "121.5167837",
    "Latitude": "25.04875721",
    "Award": ""
  },
  {
    "id": "26",
    "Dist": "松山區",
    "Name": "紅九九個人麻辣鴛鴦鍋",
    "Group": "經典鍋物組(799以下)",
    "Address": "臺北市松山區南京東路四段179巷3號",
    "Longitude": "121.5564541",
    "Latitude": "25.05265234",
    "Award": "專家評選獎 人氣票選"
  },
  {
    "id": "27",
    "Dist": "松山區",
    "Name": "Yuan.Hot Pot 原火鍋",
    "Group": "經典鍋物組(799以下)",
    "Address": "臺北市松山區南京東路五段66巷18號1樓",
    "Longitude": "121.5606527",
    "Latitude": "25.05071995",
    "Award": ""
  },
  {
    "id": "28",
    "Dist": "松山區",
    "Name": "樂崎火鍋 民生店",
    "Group": "饗宴鍋物組(800以上)",
    "Address": "臺北市松山區民生東路四段55巷3弄14號",
    "Longitude": "121.5509671",
    "Latitude": "25.05913752",
    "Award": ""
  },
  {
    "id": "29",
    "Dist": "松山區",
    "Name": "石堂潮汕石頭火鍋",
    "Group": "經典鍋物組(799以下)",
    "Address": "臺北市松山區八德路三段130號",
    "Longitude": "121.5546301",
    "Latitude": "25.04891697",
    "Award": ""
  },
  {
    "id": "30",
    "Dist": "松山區",
    "Name": "芳朵麻辣鍋 Fondue M spicy pot",
    "Group": "饗宴鍋物組(800以上)",
    "Address": "臺北市松山區光復北路98號2樓",
    "Longitude": "121.5574816",
    "Latitude": "25.05121754",
    "Award": ""
  },
  {
    "id": "31",
    "Dist": "松山區",
    "Name": "石石鍋創",
    "Group": "經典鍋物組(799以下)",
    "Address": "臺北市松山區敦化北路155巷12號1樓",
    "Longitude": "121.5507363",
    "Latitude": "25.05526694",
    "Award": ""
  },
  {
    "id": "32",
    "Dist": "大安區",
    "Name": "東豐東鍋物",
    "Group": "饗宴鍋物組(800以上)",
    "Address": "臺北市大安區東豐街37號",
    "Longitude": "121.5460458",
    "Latitude": "25.0369825",
    "Award": ""
  },
  {
    "id": "33",
    "Dist": "大安區",
    "Name": "花麻辣好雞飯堂",
    "Group": "經典鍋物組(799以下)",
    "Address": "臺北市大安區基隆路2段254號",
    "Longitude": "121.5501314",
    "Latitude": "25.02341177",
    "Award": "專家評選獎 人氣票選"
  },
  {
    "id": "34",
    "Dist": "大安區",
    "Name": "囍聚精緻鍋物",
    "Group": "饗宴鍋物組(800以上)",
    "Address": "臺北市大安區光復南路72巷7弄17號",
    "Longitude": "121.5566918",
    "Latitude": "25.04500955",
    "Award": ""
  },
  {
    "id": "35",
    "Dist": "大安區",
    "Name": "COCA泰式海鮮火鍋",
    "Group": "饗宴鍋物組(800以上)",
    "Address": "臺北市大安區忠孝東路四段216巷8弄2號1樓",
    "Longitude": "121.5527308",
    "Latitude": "25.04134765",
    "Award": ""
  },
  {
    "id": "36",
    "Dist": "大安區",
    "Name": "草原風蒙古火鍋",
    "Group": "饗宴鍋物組(800以上)",
    "Address": "臺北市大安區永康街37巷18號",
    "Longitude": "121.5300328",
    "Latitude": "25.03157039",
    "Award": "人氣票選"
  },
  {
    "id": "37",
    "Dist": "大安區",
    "Name": "冷藏肉專門 鍋無敵 Nabe Muteki",
    "Group": "經典鍋物組(799以下)",
    "Address": "臺北市大安區光復南路290巷53號",
    "Longitude": "121.5551827",
    "Latitude": "25.03985896",
    "Award": ""
  },
  {
    "id": "38",
    "Dist": "大安區",
    "Name": "品湯。白色麻辣鍋專賣",
    "Group": "經典鍋物組(799以下)",
    "Address": "臺北市大安區通化街24巷3號",
    "Longitude": "121.5537292",
    "Latitude": "25.03262375",
    "Award": "專家評選獎 人氣票選"
  },
  {
    "id": "39",
    "Dist": "大安區",
    "Name": "太和殿",
    "Group": "饗宴鍋物組(800以上)",
    "Address": "臺北市大安區信義路四段315號1樓",
    "Longitude": "121.5560896",
    "Latitude": "25.03404847",
    "Award": ""
  },
  {
    "id": "40",
    "Dist": "大安區",
    "Name": "大安9號鍋物。鐵板燒",
    "Group": "饗宴鍋物組(800以上)",
    "Address": "臺北市大安區仁愛路四段27巷9號1樓",
    "Longitude": "121.5450348",
    "Latitude": "25.04041275",
    "Award": ""
  },
  {
    "id": "41",
    "Dist": "大安區",
    "Name": "三藏和牛火鍋",
    "Group": "饗宴鍋物組(800以上)",
    "Address": "臺北市大安區忠孝東路三段251巷8弄2號",
    "Longitude": "121.5410982",
    "Latitude": "25.04375622",
    "Award": "人氣票選"
  },
  {
    "id": "42",
    "Dist": "大安區",
    "Name": "澳門贏到足 鍋物私房菜",
    "Group": "饗宴鍋物組(800以上)",
    "Address": "臺北市大安區敦化南路2段11巷2號1樓",
    "Longitude": "121.549634",
    "Latitude": "25.03331891",
    "Award": ""
  },
  {
    "id": "43",
    "Dist": "大安區",
    "Name": "竹苑 shabu",
    "Group": "饗宴鍋物組(800以上)",
    "Address": "臺北市大安區大安路1段31巷31號",
    "Longitude": "121.5475756",
    "Latitude": "25.04466464",
    "Award": ""
  },
  {
    "id": "44",
    "Dist": "大安區",
    "Name": "養心殿精緻鍋物",
    "Group": "饗宴鍋物組(800以上)",
    "Address": "臺北市大安區市民大道四段110號1樓",
    "Longitude": "121.5505838",
    "Latitude": "25.04554317",
    "Award": ""
  },
  {
    "id": "45",
    "Dist": "大安區",
    "Name": "秀花鍋 Showhua Hotpot 自家海鮮專門",
    "Group": "饗宴鍋物組(800以上)",
    "Address": "臺北市大安區復興南路107巷5弄29號",
    "Longitude": "121.5444384",
    "Latitude": "25.04442534",
    "Award": "人氣票選"
  },
  {
    "id": "46",
    "Dist": "大安區",
    "Name": "饕鍋",
    "Group": "經典鍋物組(799以下)",
    "Address": "臺北市大安區復興南路1段269號2樓",
    "Longitude": "121.5438913",
    "Latitude": "25.03614362",
    "Award": ""
  },
  {
    "id": "47",
    "Dist": "大安區",
    "Name": "鼎旺麻辣鍋",
    "Group": "饗宴鍋物組(800以上)",
    "Address": "臺北市大安區大安路一段251號(一店)",
    "Longitude": "121.5460805",
    "Latitude": "25.03456389",
    "Award": ""
  },
  {
    "id": "48",
    "Dist": "大安區",
    "Name": "洞天 粵式煲湯獨享鍋",
    "Group": "經典鍋物組(799以下)",
    "Address": "臺北市大安區敦化南路二段81巷35號",
    "Longitude": "121.550247",
    "Latitude": "25.03088313",
    "Award": ""
  },
  {
    "id": "49",
    "Dist": "大安區",
    "Name": "牛本色溫體牛火鍋",
    "Group": "饗宴鍋物組(800以上)",
    "Address": "臺北市大安區市民大道4段78號",
    "Longitude": "121.5480705",
    "Latitude": "25.04570855",
    "Award": ""
  },
  {
    "id": "50",
    "Dist": "大安區",
    "Name": "小膳香成都麻辣火鍋",
    "Group": "饗宴鍋物組(800以上)",
    "Address": "臺北市大安區忠孝東路四段223巷 40-2號",
    "Longitude": "121.5529413",
    "Latitude": "25.04414246",
    "Award": "專家評選獎 人氣票選"
  },
  {
    "id": "51",
    "Dist": "大安區",
    "Name": "東華川府重慶老火鍋",
    "Group": "饗宴鍋物組(800以上)",
    "Address": "臺北市大安區仁愛路四段345巷4弄313號1樓",
    "Longitude": "121.5542324",
    "Latitude": "25.03977095",
    "Award": ""
  },
  {
    "id": "52",
    "Dist": "信義區",
    "Name": "王鍋屋Shabu ong 京都風味酸白菜鍋專門店",
    "Group": "饗宴鍋物組(800以上)",
    "Address": "臺北市信義區逸仙路50巷20號1樓",
    "Longitude": "121.5626957",
    "Latitude": "25.04119888",
    "Award": "專家評選獎 人氣票選"
  },
  {
    "id": "53",
    "Dist": "信義區",
    "Name": "小川鍋物",
    "Group": "經典鍋物組(799以下)",
    "Address": "臺北市信義區松?路19號B2",
    "Longitude": "121.5667212",
    "Latitude": "25.04063684",
    "Award": ""
  },
  {
    "id": "54",
    "Dist": "信義區",
    "Name": "養鍋 台北松菸店",
    "Group": "饗宴鍋物組(800以上)",
    "Address": "臺北市信義區忠孝東路四段559巷28號",
    "Longitude": "121.563966",
    "Latitude": "25.04335768",
    "Award": ""
  },
  {
    "id": "55",
    "Dist": "信義區",
    "Name": "林柏食参涮涮鍋",
    "Group": "經典鍋物組(799以下)",
    "Address": "臺北市信義區松隆路333號",
    "Longitude": "121.5794023",
    "Latitude": "25.04933901",
    "Award": "人氣票選"
  },
  {
    "id": "56",
    "Dist": "信義區",
    "Name": "初衷小鹿",
    "Group": "饗宴鍋物組(800以上)",
    "Address": "臺北市信義區忠孝東路四段553巷6弄15號",
    "Longitude": "121.5631451",
    "Latitude": "25.04335757",
    "Award": "人氣票選"
  },
  {
    "id": "57",
    "Dist": "信義區",
    "Name": "撈王鍋物料理",
    "Group": "饗宴鍋物組(800以上)",
    "Address": "臺北市信義區松壽路12號9樓",
    "Longitude": "121.565766",
    "Latitude": "25.03597066",
    "Award": ""
  },
  {
    "id": "58",
    "Dist": "信義區",
    "Name": "優喜鍋物專門店",
    "Group": "饗宴鍋物組(800以上)",
    "Address": "臺北市信義區基隆路一段147巷5弄5號1樓",
    "Longitude": "121.5660742",
    "Latitude": "25.04356233",
    "Award": ""
  },
  {
    "id": "59",
    "Dist": "士林區",
    "Name": "川邸鍋物專門",
    "Group": "經典鍋物組(799以下)",
    "Address": "臺北市士林區承德路四段79號1樓",
    "Longitude": "121.5232675",
    "Latitude": "25.08314465",
    "Award": "專家評選獎 人氣票選"
  },
  {
    "id": "60",
    "Dist": "士林區",
    "Name": "錢都日式涮涮鍋-士林芝山店",
    "Group": "經典鍋物組(799以下)",
    "Address": "臺北市士林區福國路71號-1",
    "Longitude": "121.5232239",
    "Latitude": "25.10250454",
    "Award": "人氣票選"
  },
  {
    "id": "61",
    "Dist": "士林區",
    "Name": "藏王極上鍋物",
    "Group": "饗宴鍋物組(800以上)",
    "Address": "臺北市士林區忠誠路二段55號3樓",
    "Longitude": "121.5310986",
    "Latitude": "25.11282254",
    "Award": "專家評選獎 人氣票選"
  },
  {
    "id": "62",
    "Dist": "北投區",
    "Name": "貳房頂級鍋物",
    "Group": "饗宴鍋物組(800以上)",
    "Address": "臺北市北投區大業路717-3號",
    "Longitude": "121.5017524",
    "Latitude": "25.13826051",
    "Award": ""
  },
  {
    "id": "63",
    "Dist": "文山區",
    "Name": "辣椒多一點",
    "Group": "經典鍋物組(799以下)",
    "Address": "臺北市文山區興隆路二段245號1樓",
    "Longitude": "121.551458",
    "Latitude": "25.00272953",
    "Award": "人氣票選"
  },
  {
    "id": "64",
    "Dist": "南港區",
    "Name": "22：02火鍋",
    "Group": "經典鍋物組(799以下)",
    "Address": "臺北市南港區忠孝東路七段369號 C棟10樓",
    "Longitude": "121.6046467",
    "Latitude": "25.05337428",
    "Award": ""
  }
]
